City_ID,City,Lat,Lng,Max Temp,Humidity,Cloudiness,Wind Speed,Country,Date
0,bilibino,68.0546,166.4372,-8.36,92,98,0.71,RU,1696297231
1,kirensk,57.7853,108.1119,-1.1,94,92,2.24,RU,1696297329
2,waitangi,-43.9535,-176.5597,8.23,93,100,7.15,NZ,1696297246
3,edinburgh of the seven seas,-37.0676,-12.3116,10.01,57,81,9.74,SH,1696297223
4,bayramaly,37.6185,62.1671,15.86,23,71,5.35,TM,1696297329
5,isangel,-19.55,169.2667,27.06,61,75,6.69,VU,1696297068
6,port-aux-francais,-49.35,70.2167,2.33,76,75,15.36,TF,1696297249
7,san miguel,13.4833,-88.1833,24.56,99,100,0.41,SV,1696297145
8,victoria,22.2855,114.1577,31.03,81,32,2.24,HK,1696297160
9,mercedes,-34.6515,-59.4307,14.32,93,100,3.63,AR,1696297330
10,ust-nera,64.5667,143.2,1.79,68,30,1.34,RU,1696297222
11,onega,63.9061,38.1404,5.75,87,100,4.4,RU,1696297330
12,margaret river,-33.95,115.0667,14.26,63,100,4.49,AU,1696297093
13,iqaluit,63.7506,-68.5145,2.85,86,100,5.14,CA,1696297230
14,hadibu,12.65,54.0333,26.42,84,23,1.95,YE,1696297262
15,priargunsk,50.3691,119.1012,9.54,73,100,1.84,RU,1696297331
16,fauske,67.2588,15.3918,7.1,91,100,2.92,NO,1696297331
17,ushuaia,-54.8,-68.3,5.81,70,40,2.57,AR,1696297249
18,fale old settlement,-9.3852,-171.2468,28.58,74,100,5.74,TK,1696297254
19,ilulissat,69.2167,-51.1,-1.99,37,0,7.72,GL,1696297222
20,adamstown,-25.066,-130.1015,20.42,73,15,9.6,PN,1696297331
21,grytviken,-54.2811,-36.5092,1.45,61,97,4.88,GS,1696297225
22,flying fish cove,-10.4217,105.6791,24.82,73,67,5.66,CX,1696297331
23,argo,37.6333,22.7333,18.21,65,5,1.97,GR,1696297331
24,jamestown,42.097,-79.2353,18.8,89,0,1.54,US,1696297331
25,antsiranana,-12.2787,49.2917,21.49,89,45,3.35,MG,1696297204
26,albany,42.6001,-73.9662,15.75,86,15,0.45,US,1696297332
27,new norfolk,-42.7826,147.0587,21.72,79,88,3.6,AU,1696297240
28,mount isa,-20.7333,139.5,32.87,18,0,5.66,AU,1696297332
29,atafu village,-8.5421,-172.5159,28.82,73,15,4.6,TK,1696297255
30,coahuayana de hidalgo,18.7,-103.6583,27.28,91,100,0.66,MX,1696297298
31,vadso,70.0744,29.7487,0.09,100,75,3.09,NO,1696297281
32,kavieng,-2.5744,150.7967,28.55,74,59,2.08,PG,1696297332
33,blackmans bay,-43.0167,147.3167,21.07,68,72,4.36,AU,1696297333
34,st. john's,47.5649,-52.7093,9.43,95,75,1.54,CA,1696297106
35,itoman,26.1247,127.6694,31.21,84,75,4.63,JP,1696297333
36,bethel,41.3712,-73.414,17.2,85,0,0.0,US,1696297333
37,pingliang,35.5392,106.6861,13.54,83,97,1.69,CN,1696297074
38,ostersund,63.1792,14.6357,6.25,100,40,2.57,SE,1696297333
39,akjoujt,19.6969,-14.4164,32.03,14,1,2.09,MR,1696297333
40,ribeira grande,38.5167,-28.7,18.21,79,0,3.13,PT,1696297253
41,suva,-18.1416,178.4415,25.71,69,75,6.17,FJ,1696297145
42,olonkinbyen,70.9221,-8.7187,2.88,84,77,7.18,SJ,1696297334
43,puerto natales,-51.7236,-72.4875,2.91,96,100,1.87,CL,1696297334
44,longyearbyen,78.2186,15.6401,-3.09,68,75,6.69,SJ,1696297273
45,komarichi,52.4151,34.7905,5.36,89,0,2.08,RU,1696297334
46,kruisfontein,-34.0033,24.7314,17.59,39,0,3.41,ZA,1696297233
47,pundong,-7.9522,110.3486,28.38,62,100,3.64,ID,1696297334
48,sokoni,-6.4333,39.55,25.4,79,73,6.98,TZ,1696297334
49,palikir - national government center,6.9248,158.1611,31.41,70,75,2.06,FM,1696297334
50,san ignacio de velasco,-16.3667,-60.95,29.02,45,10,2.42,BO,1696297335
51,cabo san lucas,22.8909,-109.9124,31.61,72,20,7.72,MX,1696296953
52,college,64.8569,-147.8028,4.97,65,75,5.66,US,1696297335
53,pisco,-13.7,-76.2167,18.34,88,0,7.2,PE,1696297226
54,nosivka,50.9315,31.5828,7.83,79,11,2.25,UA,1696297335
55,spring creek,40.7266,-115.5859,9.34,64,97,2.86,US,1696297055
56,ancud,-41.8697,-73.8203,6.42,73,95,0.52,CL,1696297261
57,invercargill,-46.4,168.35,14.45,50,5,3.13,NZ,1696297135
58,port mathurin,-19.6833,63.4167,23.58,80,15,7.09,MU,1696297335
59,robertsport,6.7533,-11.3686,25.61,87,25,3.4,LR,1696297335
60,puerto ayora,-0.7393,-90.3518,23.08,97,80,2.68,EC,1696297336
61,rio gallegos,-51.6226,-69.2181,9.03,49,0,4.12,AR,1696297336
62,metro,-5.1131,105.3067,29.58,56,100,3.07,ID,1696297084
63,margate,51.3813,1.3862,17.95,79,100,2.68,GB,1696297336
64,corner brook,48.9667,-57.9484,6.09,86,100,1.84,CA,1696297056
65,okeho,8.0333,3.35,22.16,98,100,1.79,NG,1696297336
66,lebu,-37.6167,-73.65,9.62,83,96,3.93,CL,1696297252
67,avarua,-21.2078,-159.775,23.03,64,75,4.12,CK,1696297198
68,mega,4.05,38.3,14.69,79,71,8.0,ET,1696297337
69,weno,7.4515,151.8468,30.97,74,100,1.54,FM,1696297337
70,san patricio,28.017,-97.5169,29.35,82,2,6.24,US,1696297227
71,uturoa,-16.7333,-151.4333,26.04,81,3,7.33,PF,1696297337
72,solnechnyy,50.7214,136.6319,7.24,75,92,2.49,RU,1696297337
73,aliveri,38.4167,24.0333,21.25,66,12,6.03,GR,1696297337
74,thompson,55.7435,-97.8558,6.09,93,100,1.54,CA,1696297337
75,cusseta,32.3054,-84.7727,24.81,75,0,2.47,US,1696297337
76,whitehorse,60.7161,-135.0538,10.57,65,75,7.2,CA,1696297249
77,tamanrasset,22.785,5.5228,20.95,37,0,3.09,DZ,1696297338
78,hammerfest,70.6634,23.6821,0.25,93,100,1.54,NO,1696297338
79,mejit,10.2753,170.8646,28.61,77,13,6.02,MH,1696297338
80,tiksi,71.6872,128.8694,-2.24,81,91,7.95,RU,1696297269
81,minas de marcona,-15.2119,-75.1103,13.56,86,80,5.73,PE,1696297288
82,la passe,45.5549,-0.8967,19.13,86,29,5.68,FR,1696297338
83,stanley,54.868,-1.6985,9.01,93,20,3.09,GB,1696297107
84,general villegas,-35.0328,-63.0125,15.23,47,75,5.19,AR,1696297339
85,merowe,18.4833,31.8167,32.84,18,3,3.12,SD,1696297339
86,al burayqah,30.4062,19.5739,24.09,62,28,4.98,LY,1696297339
87,georgetown,5.4112,100.3354,28.86,89,20,1.54,MY,1696297217
88,qaqortoq,60.7167,-46.0333,3.18,82,100,1.58,GL,1696297241
89,torghay,49.6339,63.4981,10.38,62,96,2.41,KZ,1696297339
90,presidente medici,-11.1753,-61.9014,28.94,40,12,1.54,BR,1696297339
91,oliveira dos brejinhos,-12.3169,-42.8961,27.62,44,58,0.96,BR,1696297339
92,kristiansund,63.1115,7.732,9.36,93,100,1.54,NO,1696297237
93,chardara,41.2547,67.9692,15.4,40,0,2.73,KZ,1696297340
94,viedma,-40.8135,-62.9967,9.81,92,53,2.05,AR,1696297223
95,chonchi,-42.6128,-73.8092,7.56,95,80,0.61,CL,1696297340
96,jirja,26.3383,31.8916,25.12,44,0,5.14,EG,1696297340
97,aasiaat,68.7098,-52.8699,-8.81,80,3,4.24,GL,1696297264
98,laguna,38.421,-121.4238,26.16,30,0,2.06,US,1696297340
99,remire-montjoly,4.9167,-52.2667,27.02,83,0,1.03,GF,1696297271
100,klyuchi,52.2667,79.1667,4.48,52,16,3.3,RU,1696297340
101,burang,30.25,81.1667,6.96,68,84,3.42,CN,1696297341
102,aktau,43.65,51.2,19.32,39,99,7.68,KZ,1696297341
103,codrington,-38.2667,141.9667,15.01,66,97,7.68,AU,1696297341
104,nadym,65.5333,72.5167,6.37,77,100,11.29,RU,1696297341
105,california city,35.1258,-117.9859,21.88,44,0,6.69,US,1696297341
106,talnakh,69.4865,88.3972,0.67,96,100,7.56,RU,1696297243
107,tvoroyri,61.5556,-6.8111,10.14,93,21,7.38,FO,1696297341
108,la huerta,19.4667,-104.65,28.27,98,100,0.51,MX,1696297342
109,tolanaro,-25.0319,46.9987,19.04,68,75,5.14,MG,1696297342
110,puerto leguizamo,-0.1934,-74.7819,25.55,81,24,0.49,CO,1696297342
111,tralee,52.2704,-9.7026,11.37,88,100,4.82,IE,1696297240
112,karratha,-20.7377,116.8463,30.59,23,75,7.14,AU,1696297342
113,puerto baquerizo moreno,-0.9,-89.6,22.64,91,72,4.41,EC,1696297262
114,polyarnyy,69.1989,33.4478,1.79,75,100,3.32,RU,1696297315
115,tazovsky,67.4667,78.7,7.44,94,100,7.3,RU,1696297342
116,ust'-kulom,61.6864,53.6902,7.54,90,100,2.35,RU,1696297342
117,tura,25.5198,90.2201,25.06,92,28,2.01,IN,1696297263
118,chokwe,-24.5333,32.9833,15.26,73,0,1.21,MZ,1696297343
119,walvis bay,-22.9575,14.5053,12.83,100,6,2.06,NA,1696297343
120,kodiak,57.79,-152.4072,8.73,46,0,8.23,US,1696297235
121,muravlenko,63.7898,74.523,8.27,87,66,10.04,RU,1696297343
122,berdigestyakh,62.0989,126.6992,0.72,91,100,3.13,RU,1696297343
123,sisimiut,66.9395,-53.6735,0.91,61,5,2.84,GL,1696297343
124,alice springs,-23.7,133.8833,35.75,14,16,8.75,AU,1696297343
125,papatowai,-46.5619,169.4708,13.38,41,5,3.54,NZ,1696297343
126,carnarvon,-24.8667,113.6333,19.36,43,0,10.72,AU,1696297344
127,dudinka,69.4058,86.1778,0.9,96,100,10.28,RU,1696297344
128,colonel hill,22.7667,-74.2167,28.63,75,100,7.46,BS,1696297344
129,punta arenas,-53.15,-70.9167,6.06,75,0,5.14,CL,1696297153
130,port elizabeth,-33.918,25.5701,20.17,51,0,2.57,ZA,1696297344
131,asosa,10.0667,34.5333,16.24,77,51,1.59,ET,1696297344
132,tari,12.4086,4.4914,23.31,87,99,6.74,NG,1696297344
133,west island,-12.1568,96.8225,25.99,69,75,5.66,CC,1696297344
134,yellowknife,62.456,-114.3525,9.67,97,75,1.54,CA,1696297230
135,male,4.1748,73.5089,26.97,89,75,2.06,MV,1696297345
136,utrik,11.2278,169.8474,28.76,78,27,6.3,MH,1696297253
137,dubbo,-32.25,148.6167,30.07,23,43,10.8,AU,1696297170
138,hermanus,-34.4187,19.2345,14.58,91,0,2.22,ZA,1696297345
139,petra,30.3222,35.4793,16.45,77,94,2.22,JO,1696297345
140,haiku-pauwela,20.9219,-156.3051,31.01,51,40,5.14,US,1696297345
141,kivioli,59.3531,26.9711,12.61,90,100,5.2,EE,1696297345
142,cooper's town,26.8667,-77.5167,27.47,66,4,8.98,BS,1696297287
143,isafjordur,66.0755,-23.124,1.15,93,100,7.28,IS,1696297230
144,enewetak,11.3474,162.3373,28.39,79,100,4.96,MH,1696297346
145,petropavlovsk-kamchatsky,53.0452,158.6483,8.03,88,75,6.71,RU,1696297107
146,xiaoshan,30.1675,120.2588,25.92,61,20,2.0,CN,1696297346
147,gurupi,-11.7292,-49.0686,30.58,25,10,2.0,BR,1696297346
148,shushtar,32.0455,48.8567,29.91,27,78,1.89,IR,1696297346
149,chernyshevsk,52.5243,117.0174,8.16,51,44,2.96,RU,1696297346
150,kerikeri,-35.2268,173.9474,19.39,61,0,0.89,NZ,1696297347
151,howrah,22.5892,88.3103,28.0,94,40,3.09,IN,1696297347
152,verkhnevilyuysk,63.4453,120.3167,-0.59,77,42,1.79,RU,1696297347
153,madera,37.1666,-119.8343,24.05,39,25,1.86,US,1696297347
154,hasaki,35.7333,140.8333,27.38,51,65,4.46,JP,1696297347
155,paka,4.6374,103.4368,23.96,100,20,0.0,MY,1696297347
156,lihue,21.9789,-159.3672,28.58,72,0,4.63,US,1696297217
157,sao paulo de olivenca,-3.3783,-68.8725,26.97,65,100,0.76,BR,1696297347
158,saint-philippe,-21.3585,55.7679,20.77,82,13,0.51,RE,1696297262
159,severo-yeniseyskiy,60.3725,93.0408,0.32,98,100,2.68,RU,1696297348
160,arkalyk,50.2486,66.9114,7.57,62,0,3.52,KZ,1696297348
161,valday,57.9747,33.2525,6.69,86,97,1.79,RU,1696297348
162,yuzhno-kurilsk,44.0306,145.8556,14.65,74,66,9.66,RU,1696297348
163,grand-popo,6.2804,1.8225,26.0,87,7,3.84,BJ,1696297348
164,haapsalu,58.9431,23.5414,15.51,93,100,5.6,EE,1696297348
165,iskateley,67.6803,53.1512,3.9,78,62,9.39,RU,1696297274
166,anadyr,64.75,177.4833,4.28,55,0,6.71,RU,1696297348
167,cozumel,20.5083,-86.9458,29.41,91,40,2.24,MX,1696297089
168,tevriz,57.509,72.4042,9.99,69,100,4.06,RU,1696297349
169,iskushuban,10.2837,50.23,25.67,75,13,3.25,SO,1696297349
170,richards bay,-28.783,32.0377,17.29,64,0,7.38,ZA,1696297349
171,kapoeta,4.7717,33.5903,26.28,54,100,2.84,SS,1696297349
172,celestun,20.8667,-90.4,28.39,80,100,5.41,MX,1696297349
173,bredasdorp,-34.5322,20.0403,12.33,92,0,2.29,ZA,1696297252
174,mormugao,15.4,73.8,24.59,100,75,1.54,IN,1696297349
175,howard springs,-12.497,131.047,35.06,39,85,1.42,AU,1696297296
176,miri,4.4148,114.0089,30.08,79,40,1.03,MY,1696297350
177,vega de alatorre,20.0333,-96.6333,27.57,80,79,1.23,MX,1696297350
178,alibag,18.6411,72.8792,27.04,79,100,0.6,IN,1696297350
179,namibe,-15.1961,12.1522,18.08,90,37,2.36,AO,1696297350
180,gandorhun,7.5,-11.8333,22.99,99,100,1.01,SL,1696297350
181,la ronge,55.1001,-105.2842,7.14,93,100,3.09,CA,1696297299
182,maceio,-9.6658,-35.7353,21.69,100,0,1.54,BR,1696297207
183,anna regina,7.2644,-58.5077,28.35,78,100,4.98,GY,1696297350
184,mutuali,-14.8706,37.0044,20.19,71,1,1.54,MZ,1696297351
185,cento,44.726,11.2882,18.72,60,0,0.93,IT,1696297351
186,port lincoln,-34.7333,135.8667,15.27,56,73,8.83,AU,1696297351
187,hutchinson,38.0608,-97.9298,26.13,45,0,4.63,US,1696297237
188,east london,-33.0153,27.9116,19.82,48,0,3.27,ZA,1696297351
189,saipan,15.1355,145.701,31.39,74,40,7.2,MP,1696297351
190,port alfred,-33.5906,26.891,20.23,50,0,2.84,ZA,1696297239
191,guantanamo,20.1444,-75.2092,27.76,90,88,1.7,CU,1696297351
192,angleton,29.1694,-95.4319,28.02,69,0,0.0,US,1696297144
193,kenora,49.8167,-94.4337,23.54,64,20,3.09,CA,1696297302
194,qamdo,31.1667,97.2333,10.05,52,7,1.68,CN,1696297352
195,taulaga,-11.0553,-171.0883,27.96,77,30,7.06,AS,1696297352
196,luis correia,-2.8792,-41.6669,26.13,86,67,6.2,BR,1696297352
197,sambava,-14.2667,50.1667,22.39,84,11,1.97,MG,1696297352
198,mazatenango,14.5333,-91.5,25.62,97,99,1.45,GT,1696297352
199,lompoc,34.6391,-120.4579,20.08,84,40,11.62,US,1696297352
200,san andres,12.5847,-81.7006,28.01,89,20,0.0,CO,1696297144
201,tutoia,-2.7619,-42.2744,26.21,87,51,5.3,BR,1696297353
202,tarko-sale,64.9225,77.785,9.44,87,61,7.6,RU,1696297353
203,takoradi,4.8845,-1.7554,24.7,90,48,3.31,GH,1696297353
204,tsiombe,-25.3,45.4833,17.71,56,18,5.09,MG,1696297353
205,kapuskasing,49.4169,-82.4331,22.05,68,40,6.69,CA,1696297283
206,sitka,57.0531,-135.33,11.94,87,100,5.14,US,1696297353
207,constantia,44.1833,28.65,13.38,54,0,4.26,RO,1696297289
208,vila franca do campo,37.7167,-25.4333,20.23,99,25,4.73,PT,1696297354
209,pelabuhanratu,-6.9875,106.5514,28.68,62,100,2.15,ID,1696297354
210,kazanka,47.8462,32.8218,10.25,64,10,3.9,UA,1696297354
211,faya-largeau,17.9257,19.1043,27.02,35,14,14.59,TD,1696297354
212,vanimo,-2.6741,141.3028,28.39,68,100,3.73,PG,1696297354
213,yashiro,34.9167,134.9667,22.6,50,100,3.36,JP,1696297354
214,veinticinco de mayo,-35.4323,-60.1727,12.21,70,100,0.89,AR,1696297354
215,uliastay,47.7417,96.8444,3.93,64,4,0.39,MN,1696297355
216,krasnyy chikoy,50.3643,108.7512,3.46,62,55,0.89,RU,1696297355
217,lazarevskoye,43.9061,39.3331,18.25,66,31,3.68,RU,1696297165
218,igabi,10.7889,7.7749,20.69,95,100,1.75,NG,1696297355
219,qusmuryn,52.4503,64.6311,9.73,67,92,2.91,KZ,1696297355
220,fort bragg,35.139,-79.006,21.08,78,0,2.57,US,1696297288
221,avanigadda,16.0215,80.9181,27.75,85,100,2.56,IN,1696297355
222,hawaiian paradise park,19.5933,-154.9731,26.04,84,100,3.09,US,1696297355
223,mazyr,52.0495,29.2456,9.62,69,100,2.62,BY,1696297356
224,aykhal,66.0,111.5,-7.74,91,87,3.13,RU,1696297356
225,sao joao do piaui,-8.3581,-42.2467,26.17,27,5,1.65,BR,1696297356
226,al ghayzah,16.2079,52.176,24.87,82,1,1.57,YE,1696297356
227,tuapse,44.1125,39.0742,15.91,69,23,4.39,RU,1696297356
228,villa hayes,-25.0931,-57.5236,26.05,38,0,4.12,PY,1696297356
229,mount gambier,-37.8333,140.7667,14.13,70,65,6.05,AU,1696297185
230,hamilton,39.1834,-84.5333,23.0,75,0,0.0,US,1696297332
231,baniachang,24.5167,91.3667,27.22,83,21,2.56,BD,1696297356
232,bamboo flat,11.7,92.7167,25.05,94,100,2.57,IN,1696297357
233,el abadia,36.2695,1.6861,24.74,54,0,1.96,DZ,1696297357
234,moshi,-3.35,37.3333,17.62,85,74,0.62,TZ,1696297357
235,daru,-9.0763,143.2092,27.4,74,65,5.2,PG,1696297357
236,undurkhaan,47.3194,110.6556,6.41,33,49,2.7,MN,1696297357
237,aksuat,48.7167,83.7,13.17,52,99,1.21,KZ,1696297357
238,urucui,-7.2294,-44.5561,28.07,26,6,1.95,BR,1696297357
239,churapcha,62.0025,132.4325,9.13,59,100,2.98,RU,1696297357
240,pontes e lacerda,-15.2261,-59.3353,28.31,47,23,0.86,BR,1696297358
241,rio grande,-32.035,-52.0986,13.86,87,36,3.97,BR,1696297358
242,brokopondo,4.75,-55.1667,27.7,75,44,4.97,SR,1696297358
243,n'zeto,-7.2312,12.8666,23.39,91,100,2.17,AO,1696297358
244,afaahiti,-17.75,-149.2833,25.93,86,65,6.17,PF,1696297358
245,nuuk,64.1835,-51.7216,4.34,75,100,1.03,GL,1696297358
246,tommot,58.9564,126.2925,1.66,92,100,3.13,RU,1696297358
247,sabang,5.8933,95.3214,27.77,76,100,8.12,ID,1696297359
248,kievka,50.2619,71.5514,9.02,67,99,5.29,KZ,1696297359
249,lagdo,9.05,13.7333,22.78,95,100,1.46,CM,1696297359
250,nova sintra,14.8667,-24.7167,23.25,82,17,5.5,CV,1696297359
251,sault ste. marie,46.5168,-84.3333,19.31,89,0,1.03,CA,1696297360
252,norilsk,69.3535,88.2027,0.79,96,100,6.89,RU,1696297360
253,plastun,44.7561,136.2939,13.38,66,0,2.24,RU,1696297360
254,borogontsy,62.6683,131.1683,7.38,87,100,2.24,RU,1696297360
255,vorgashor,67.5833,63.95,1.1,79,99,7.34,RU,1696297360
256,kapa'a,22.0752,-159.319,28.99,77,0,4.63,US,1696297272
257,paita,-5.0892,-81.1144,19.98,81,74,7.01,PE,1696297360
258,keflavik,64.0049,-22.5624,6.24,81,75,6.69,IS,1696297360
259,berezivka,47.2043,30.9078,10.11,63,2,3.28,UA,1696297360
260,christchurch,-43.5333,172.6333,13.56,55,20,4.12,NZ,1696297196
261,daman,20.4167,72.85,25.42,83,63,2.91,IN,1696297361
262,santa ana,33.7456,-117.8678,22.01,66,20,4.63,US,1696297361
263,kuta,-8.7233,115.1723,28.89,79,40,2.24,ID,1696297361
264,ponnani,10.767,75.9252,23.62,91,31,2.1,IN,1696297361
265,susuman,62.7833,148.1667,-1.68,82,5,1.34,RU,1696297361
266,meizhou,24.2977,116.1072,29.54,71,53,1.58,CN,1696297361
267,acajutla,13.5928,-89.8275,27.5,83,58,1.34,SV,1696297361
268,la libertad,-2.2333,-80.9,22.03,81,30,4.86,EC,1696297361
269,sur,22.5667,59.5289,29.89,44,16,2.23,OM,1696297316
270,el granada,37.5027,-122.4694,21.01,80,100,8.23,US,1696297267
271,hirara,24.8,125.2833,30.15,84,75,6.17,JP,1696297362
272,sola,-13.8833,167.55,24.27,92,100,11.23,VU,1696297362
273,san antonio de pale,-1.4014,5.6325,25.43,84,100,5.38,GQ,1696297256
274,aioun,16.6614,-9.6149,33.74,14,100,3.26,MR,1696297362
275,queenstown,-31.8976,26.8753,17.07,40,0,2.52,ZA,1696297362
276,portland,45.5234,-122.6762,14.5,94,100,5.36,US,1696296884
277,tafuna,-14.3358,-170.72,27.97,89,100,9.26,AS,1696297363
278,san matias,-16.3667,-58.4,30.1,42,30,2.24,BO,1696297363
279,udachny,66.4167,112.4,-3.64,73,74,3.61,RU,1696297250
280,ilula,-7.6766,36.0366,13.58,87,92,2.94,TZ,1696297363
281,melekeok village,7.4957,134.6367,30.31,74,75,3.09,PW,1696297363
282,mersa matruh,31.3525,27.2453,22.11,68,40,5.14,EG,1696297363
283,naantali,60.4674,22.0243,12.43,94,75,3.6,FI,1696297363
284,humen,22.819,113.6731,28.95,72,14,1.35,CN,1696297363
285,bikenibeu village,1.3673,173.1241,31.98,70,40,3.09,KI,1696297364
286,sao joaquim,-28.2939,-49.9317,5.95,98,31,1.31,BR,1696297069
287,berlin,52.5244,13.4105,18.88,86,0,1.54,DE,1696296881
288,bom jesus da lapa,-13.255,-43.4181,30.21,36,76,3.02,BR,1696297339
289,mirpur sakro,24.5474,67.6277,25.56,79,2,3.73,PK,1696297364
290,prince george,53.9166,-122.753,11.69,79,40,1.54,CA,1696297276
291,tual,-5.6667,132.75,26.49,86,24,5.82,ID,1696297364
292,colby,39.3958,-101.0524,26.03,51,0,9.77,US,1696297309
293,zaranj,30.9667,61.8833,22.83,16,0,0.89,AF,1696297364
294,holualoa,19.6228,-155.9522,27.1,77,40,3.6,US,1696297364
295,kununurra,-15.7667,128.7333,33.99,46,3,2.57,AU,1696297333
296,kutahya,39.4242,29.9833,9.34,94,58,1.9,TR,1696297365
297,kamloops,50.6665,-120.3192,13.55,74,75,4.12,CA,1696297365
298,nar'yan-mar,67.6713,53.087,3.95,78,58,9.39,RU,1696297265
299,cassilandia,-19.1133,-51.7342,24.19,83,95,1.45,BR,1696297365
300,bushehr,28.9684,50.8385,28.05,61,0,2.06,IR,1696297365
301,miyako,39.6367,141.9525,21.49,49,97,3.25,JP,1696297365
302,crane,31.3974,-102.3501,25.7,61,77,11.16,US,1696297229
303,valparaiso,-33.0393,-71.6273,12.8,58,75,3.09,CL,1696297172
304,amstetten,48.1229,14.8721,14.43,89,25,0.72,AT,1696297366
305,yei,4.095,30.6779,19.63,94,100,0.74,SS,1696297366
306,tabou,4.423,-7.3528,24.75,88,100,4.41,CI,1696297297
307,tzucacab,20.0667,-89.05,26.92,77,86,1.42,MX,1696297366
308,bratske,47.865,31.5731,9.81,65,7,3.59,UA,1696297366
309,nova olimpia,-14.7972,-57.2881,28.64,55,41,1.8,BR,1696297366
310,wailua homesteads,22.0669,-159.378,28.24,77,0,4.63,US,1696297234
311,konkwesso,10.8469,4.0984,24.16,90,100,1.17,NG,1696297366
312,pizarro,4.9533,-77.366,25.53,90,100,2.05,CO,1696297367
313,ouadda,8.0777,22.4007,20.62,88,100,1.31,CF,1696297367
314,wanlaweyn,2.6185,44.8938,24.76,89,14,3.7,SO,1696297367
315,mahina,-17.5065,-149.489,26.87,74,75,2.57,PF,1696297367
316,alofi,-19.0595,-169.9187,23.94,69,75,9.77,NU,1696297258
317,bardai,11.65,7.2333,21.11,86,100,2.67,NG,1696297367
318,tangalle,6.024,80.7911,25.09,82,96,2.78,LK,1696297367
319,choibalsan,48.0667,114.5,7.62,30,25,7.56,MN,1696297367
320,wewak,-3.5534,143.6268,25.95,89,100,4.26,PG,1696297368
321,kencong,-8.2833,113.3667,28.48,61,78,2.25,ID,1696297368
322,brookings,44.3114,-96.7984,25.21,50,0,1.34,US,1696297307
323,sarmiento,-45.5882,-69.07,9.82,51,31,3.88,AR,1696297368
324,castillos,-34.1667,-53.8333,10.34,95,61,2.18,UY,1696297368
325,yverdon-les-bains,46.7785,6.6412,19.2,47,100,2.61,CH,1696297368
326,sergeyevka,53.88,67.4158,8.08,75,39,3.27,KZ,1696297368
327,mabaruma,8.2,-59.7833,26.2,86,100,1.53,GY,1696297368
328,general acha,-37.377,-64.6043,14.84,76,100,4.17,AR,1696297369
329,nowy dwor mazowiecki,52.4302,20.7165,16.17,88,0,2.57,PL,1696297369
330,pekanbaru,0.5333,101.45,26.18,89,20,0.0,ID,1696297369
331,jutai,-5.1833,-68.9,26.46,71,100,0.09,BR,1696297369
332,happy valley-goose bay,53.3168,-60.3315,7.17,61,75,3.09,CA,1696297369
333,port isabel,26.0734,-97.2086,31.02,76,20,4.12,US,1696297369
334,redencao,-4.2258,-38.7306,23.66,93,38,0.76,BR,1696297369
335,khouribga,32.9333,-6.6,22.8,36,76,1.75,MA,1696297369
336,quepos,9.4236,-84.1652,26.1,82,100,1.54,CR,1696297369
337,nemuro,43.3236,145.575,16.09,68,6,10.77,JP,1696297370
338,beysehir,37.6773,31.7246,13.19,80,67,3.98,TR,1696297370
339,oroqen zizhiqi,50.5667,123.7167,12.96,51,100,1.53,CN,1696297370
340,gul'kevichi,45.3538,40.6946,17.08,83,67,1.31,RU,1696297370
341,villa angela,-27.5738,-60.7153,21.27,41,0,5.46,AR,1696297370
342,tupiza,-21.45,-65.7167,15.15,37,87,3.14,BO,1696297370
343,taltal,-25.4,-70.4833,15.1,84,5,2.93,CL,1696297220
344,puerto aysen,-45.4,-72.7,2.89,99,99,1.28,CL,1696297371
345,griffith,41.5284,-87.4237,24.47,66,0,0.0,US,1696297371
346,luwuk,-0.9516,122.7875,30.43,58,63,2.05,ID,1696297371
347,baiyin,36.5583,104.2081,14.77,59,70,2.17,CN,1696297282
348,west plains,36.7281,-91.8524,22.83,71,0,0.0,US,1696297371
349,nyurba,63.2842,118.3319,-1.09,75,56,2.24,RU,1696297371
350,egletons,45.4034,2.0507,13.04,90,5,1.35,FR,1696297371
351,mount pearl,47.5166,-52.7813,8.97,95,75,1.54,CA,1696297244
352,nuku'alofa,-21.1333,-175.2,23.19,64,75,7.2,TO,1696297371
353,nieuw amsterdam,5.8833,-55.0833,28.34,79,19,6.33,SR,1696297372
354,gustavia,17.8962,-62.8498,28.95,85,72,4.92,BL,1696297333
355,kupang,-10.1667,123.5833,33.32,49,20,3.09,ID,1696297372
356,coquimbo,-29.9533,-71.3436,12.85,87,40,2.57,CL,1696297213
357,greymouth,-42.4667,171.2,13.88,38,0,3.18,NZ,1696297372
358,bel ombre,-4.6167,55.4167,26.91,78,20,7.2,SC,1696297372
359,cidreira,-30.1811,-50.2056,14.59,81,3,2.47,BR,1696297372
360,yemetsk,63.4721,41.7941,1.87,96,92,1.99,RU,1696297372
361,toulepleu guere,6.574,-8.4259,22.17,99,94,1.16,CI,1696297373
362,kayangel,8.0823,134.7173,28.79,72,23,3.58,PW,1696297272
363,tripoli,32.8752,13.1875,23.19,67,0,3.6,LY,1696297272
364,sandnessjoen,66.0217,12.6316,7.29,85,100,8.93,NO,1696297373
365,chernyshkovskiy,48.4219,42.2308,14.34,79,98,2.7,RU,1696297373
366,"laikit, laikit ii (dimembe)",1.4792,124.9735,31.47,52,20,1.54,ID,1696297373
367,kan'onjicho,34.1167,133.65,23.21,50,85,3.83,JP,1696297373
368,mahdia,35.5047,11.0622,19.97,75,0,0.96,TN,1696297373
369,tazacorte,28.629,-17.9293,23.54,83,0,4.63,ES,1696297288
370,romanovo,52.6182,81.2271,3.7,53,2,3.15,RU,1696297374
371,abatskoye,56.2875,70.4555,8.87,70,100,4.98,RU,1696297374
372,enriquillo,17.9,-71.2333,27.28,85,98,2.12,DO,1696297374
373,labrador city,52.9463,-66.9114,4.95,93,100,1.54,CA,1696297374
374,turpan,42.9333,89.1667,24.26,25,100,1.75,CN,1696297374
375,baijiantan,45.6333,85.1833,17.33,40,100,3.55,CN,1696297374
376,whitecourt,54.1502,-115.6855,13.58,58,40,2.06,CA,1696297374
377,melfort,52.8667,-104.6177,6.98,95,99,1.33,CA,1696297374
378,san juan de miraflores,-12.1629,-76.9635,20.09,80,94,3.99,PE,1696297375
379,bubaque,11.2833,-15.8333,27.99,80,89,2.1,GW,1696297375
380,makarov,48.6333,142.8,13.33,65,100,8.48,RU,1696297375
381,tocopilla,-22.092,-70.1979,17.46,80,38,4.29,CL,1696297375
382,lethbridge,49.7,-112.8186,13.27,58,75,6.69,CA,1696297150
383,de aar,-30.6497,24.0123,18.41,33,0,2.45,ZA,1696297375
384,trairi,-3.2778,-39.2689,26.06,82,11,4.6,BR,1696297279
385,atherton,53.5237,-2.4935,11.9,97,40,1.23,GB,1696297301
386,broome,42.2506,-75.833,18.69,92,0,0.41,US,1696297375
387,praia da vitoria,38.7333,-27.0667,19.14,77,20,5.77,PT,1696297376
388,bonthe,7.5264,-12.505,24.99,90,100,2.8,SL,1696297257
389,thunder bay,48.4001,-89.3168,23.99,53,75,3.6,CA,1696297080
390,tofol,5.3248,163.0078,31.88,74,40,1.54,FM,1696297269
391,smithers,54.7804,-127.1743,10.18,81,40,2.06,CA,1696297376
392,kabwe,-14.4469,28.4464,16.98,82,11,5.07,ZM,1696297376
393,harstad,68.799,16.5293,5.45,96,86,2.24,NO,1696297376
394,colonia,50.9333,6.95,22.46,77,0,2.57,DE,1696297160
395,homer,59.6425,-151.5483,8.93,67,75,3.09,US,1696297169
396,urangan,-25.3,152.9,23.21,65,70,4.88,AU,1696297377
397,inirida,3.8653,-67.9239,25.15,86,100,0.95,CO,1696297377
398,pangoa,-12.1167,-73.0,21.53,99,100,1.3,PE,1696297377
399,kingston,17.997,-76.7936,27.53,93,20,3.09,JM,1696296924
400,fortuna,40.5982,-124.1573,16.19,79,0,5.66,US,1696297377
401,akividu,16.6,81.3833,27.32,83,51,2.71,IN,1696297377
402,zhaqsy,51.9083,67.3133,6.58,65,6,1.72,KZ,1696297377
403,kiunga,-6.1219,141.2906,27.86,87,91,0.73,PG,1696297278
404,north branch,45.5113,-92.9802,26.15,69,0,4.24,US,1696296926
405,sorong,-0.8833,131.25,25.44,88,100,3.45,ID,1696297378
406,santa cruz,-17.8,-63.1667,28.7,65,66,5.14,BO,1696297378
407,byron bay,-28.65,153.6167,28.17,50,0,6.88,AU,1696297362
408,mahanoro,-19.9,48.8,21.1,92,100,6.46,MG,1696297378
409,linxia chengguanzhen,35.6003,103.2064,13.25,84,100,1.35,CN,1696297378
410,benjamin constant,-4.3831,-70.0311,26.07,83,0,0.51,BR,1696297378
411,frolovo,49.7713,43.6622,11.33,61,100,2.72,RU,1696297378
412,taoudenni,22.6783,-3.9836,32.93,17,5,7.92,ML,1696297245
413,raja,8.4596,25.678,21.56,96,100,0.95,SS,1696297378
414,sinabang,2.4803,96.3801,27.37,75,96,5.03,ID,1696297379
415,zeya,53.75,127.2667,9.94,67,99,2.24,RU,1696297379
416,ermoupolis,37.4423,24.9425,21.39,68,0,9.26,GR,1696297379
417,barakani,-12.1356,44.4317,25.37,79,69,4.12,KM,1696297379
418,kuybyshev,55.4475,78.3218,5.15,68,13,2.77,RU,1696297379
419,playa blanca,28.8643,-13.8281,24.11,84,38,5.47,ES,1696297379
420,mantsala,60.6609,25.2838,12.05,95,97,3.21,FI,1696297379
421,port nelson,23.6333,-74.8333,28.71,71,100,6.62,BS,1696297379
422,yangchun,22.1667,111.7833,29.69,74,25,1.26,CN,1696297380
423,mccomb,31.2438,-90.4531,25.93,41,0,0.0,US,1696297380
424,saldanha,-33.0117,17.9442,15.03,89,0,7.94,ZA,1696297159
425,gizo,-8.103,156.8419,27.85,84,77,6.38,SB,1696297380
426,balikpapan,-1.2675,116.8289,27.55,78,20,2.06,ID,1696297380
427,usinsk,65.9939,57.5281,1.71,82,16,6.26,RU,1696297380
428,polatsk,55.4859,28.7756,9.4,88,99,2.83,BY,1696297380
429,mizque,-17.941,-65.3402,19.14,74,11,1.14,BO,1696297380
430,ed damer,17.5928,33.9592,31.87,18,5,4.2,SD,1696297381
431,narasannapeta,18.4167,84.05,27.22,87,99,2.52,IN,1696297381
432,melipilla,-33.7,-71.2167,13.01,84,86,0.92,CL,1696297203
433,manokwari,-0.8667,134.0833,27.66,75,96,1.62,ID,1696297381
434,alice,27.7523,-98.0697,26.76,94,75,5.66,US,1696297381
435,zhelezinka,53.54,75.3072,5.28,47,0,1.31,KZ,1696297381
436,nikolayevsk-on-amure,53.1406,140.73,7.93,96,100,2.94,RU,1696297381
437,pathardi,19.1667,75.1833,22.86,81,100,3.77,IN,1696297381
438,playa del ingles,27.7567,-15.5787,28.55,49,2,5.98,ES,1696297331
439,fuglafjordur,62.244,-6.814,10.26,90,96,3.43,FO,1696297382
440,taroa,8.7058,171.2275,28.99,76,78,6.5,MH,1696297382
441,egilsstadir,65.2653,-14.3948,4.95,93,100,5.14,IS,1696297294
442,taroudant,30.4703,-8.877,27.35,22,95,2.59,MA,1696297382
443,luang namtha,20.9497,101.4011,24.01,94,100,1.03,LA,1696297382
444,bodo,67.28,14.405,7.1,91,100,6.69,NO,1696297382
445,newman,37.3138,-121.0208,25.19,40,12,1.34,US,1696297277
446,vernon,50.2581,-119.2691,13.67,86,99,0.89,CA,1696297211
447,dawson creek,55.7666,-120.2362,12.8,44,0,5.66,CA,1696297382
448,zemio,5.0314,25.1361,20.46,98,100,0.75,CF,1696297383
449,arrah,25.5667,84.6667,27.94,88,99,3.97,IN,1696297383
450,mbanza-ngungu,-5.25,14.8667,21.93,87,23,2.82,CD,1696297383
451,gadzhiyevo,69.2551,33.3362,1.45,75,100,3.28,RU,1696297258
452,lu-uk,5.9684,121.3122,29.72,69,9,2.49,PH,1696297383
453,mar del plata,-38.0023,-57.5575,10.61,98,100,2.57,AR,1696297288
454,lugus,5.7036,120.8203,28.67,74,28,3.32,PH,1696297383
455,malibu,34.005,-118.8101,21.25,83,0,3.97,US,1696297384
456,ambodifotatra,-16.9833,49.85,23.71,79,22,0.62,MG,1696297274
457,phan rang-thap cham,11.5667,108.9833,28.48,79,86,0.8,VN,1696297384
458,vilyuchinsk,52.9306,158.4028,8.85,84,100,3.48,RU,1696297384
459,thabazimbi,-24.5917,27.4116,13.08,69,0,1.44,ZA,1696297384
460,yallahs,17.8748,-76.5624,27.85,82,93,0.98,JM,1696297384
461,telimele,10.9167,-13.3333,22.6,94,99,0.57,GN,1696297384
462,prado,-17.3411,-39.2208,24.27,93,100,4.61,BR,1696297092
463,bozeman,45.6796,-111.0386,9.45,87,100,1.54,US,1696297179
464,hithadhoo,-0.6,73.0833,27.73,74,69,5.26,MV,1696297264
465,cheremukhovo,60.3484,59.9851,8.87,84,53,2.68,RU,1696297385
466,geraldton,-28.7667,114.6,19.23,39,40,6.69,AU,1696297245
467,waingapu,-9.6567,120.2641,30.43,58,1,5.42,ID,1696297385
468,hobyo,5.3505,48.5268,25.56,89,4,6.68,SO,1696297385
469,island harbour,50.724,-1.2758,14.43,89,100,1.34,GB,1696297385
470,longuenesse,50.734,2.2352,19.13,84,100,8.55,FR,1696297385
471,garoowe,8.4054,48.4845,25.01,68,53,4.28,SO,1696297385
472,harar,9.3094,42.1258,16.0,84,88,2.73,ET,1696297385
473,boromo,11.75,-2.9333,26.78,73,100,2.26,BF,1696297386
474,alvorada,-12.48,-49.1247,30.9,24,52,2.3,BR,1696297386
475,bathsheba,13.2167,-59.5167,29.34,84,20,4.12,BB,1696297386
476,selfoss,63.9331,-20.9971,6.69,80,68,4.37,IS,1696297386
477,slave lake,55.2834,-114.769,11.99,76,20,0.0,CA,1696297137
478,kuvshinovo,57.0295,34.1725,8.23,80,98,2.33,RU,1696297160
479,conception bay south,47.4999,-52.9981,9.3,94,10,1.47,CA,1696297386
480,udalguri,26.7667,92.1333,27.23,84,51,2.19,IN,1696297386
481,ngereklmadel,7.4883,134.4856,30.05,74,75,3.09,PW,1696297387
482,kochenevo,55.0218,82.202,-0.34,58,0,1.88,RU,1696297387
483,hailin,44.5833,129.4167,15.1,55,33,2.39,CN,1696297387
484,mount barker,-35.0667,138.8667,17.72,64,15,7.21,AU,1696297387
485,cockburn town,21.4612,-71.1419,28.62,76,49,6.19,TC,1696297387
486,murray bridge,-35.1167,139.2667,18.96,35,47,7.75,AU,1696297387
487,arteaga,18.4667,-102.4167,19.43,99,100,1.67,MX,1696297260
488,emerald,-23.5333,148.1667,27.41,35,0,6.57,AU,1696297387
489,chom thong,18.4174,98.6743,27.83,81,18,0.5,TH,1696297388
490,tromso,69.6496,18.957,3.01,87,100,1.54,NO,1696297388
491,tucumcari,35.1717,-103.725,17.91,100,0,1.54,US,1696297243
492,quellon,-43.1167,-73.6167,6.43,86,97,1.6,CL,1696297388
493,turkmenbasy,40.0222,52.9552,18.43,27,0,3.09,TM,1696297388
494,kenai,60.5544,-151.2583,9.52,79,100,3.09,US,1696297388
495,jinghong,21.991,100.7341,27.06,73,30,0.99,CN,1696297388
496,redwood falls,44.5394,-95.1169,26.01,41,0,4.63,US,1696297388
497,camabatela,-8.1881,15.375,18.81,94,100,1.18,AO,1696297389
498,yakeshi,49.2833,120.7333,9.76,62,100,2.76,CN,1696297389
499,tomatlan,19.9333,-105.25,26.41,91,100,1.02,MX,1696297291
500,igurubi,-4.0,33.7,21.8,41,46,5.68,TZ,1696297389
501,angaur state,6.906,134.13,28.81,71,65,2.93,PW,1696297255
502,sena madureira,-9.0656,-68.6569,27.67,65,43,0.91,BR,1696297389
503,katsuura,35.1333,140.3,24.49,54,62,4.41,JP,1696297389
504,umm kaddadah,13.6017,26.6876,27.99,54,81,6.74,SD,1696297389
505,ust'-ordynskiy,52.805,104.7508,1.85,94,100,3.18,RU,1696297389
506,lachute,45.6501,-74.3325,19.14,65,11,1.91,CA,1696297306
507,puerto francisco de orellana,-0.4667,-76.9667,21.83,96,19,0.89,EC,1696297390
508,colipapa,9.4726,122.5616,27.84,82,100,2.84,PH,1696297390
509,manicore,-5.8092,-61.3003,29.55,35,100,1.28,BR,1696297390
510,chamical,-30.36,-66.314,22.69,37,1,5.45,AR,1696297390
511,tuy hoa,13.0833,109.3,28.06,84,88,1.72,VN,1696297390
512,revda,56.801,59.9303,10.37,81,100,2.94,RU,1696297390
513,energetik,51.7445,58.7934,10.57,59,100,2.31,RU,1696297390
514,rincon de la victoria,36.7172,-4.2758,23.94,59,69,1.6,ES,1696297324
515,skadovs'k,46.1161,32.9112,13.28,68,6,5.62,UA,1696297391
516,naze,28.3667,129.4833,24.51,93,100,5.21,JP,1696297391
517,malango,-2.9627,119.9001,28.89,53,64,1.82,ID,1696297292
518,midvagur,62.0511,-7.1939,10.46,93,100,6.17,FO,1696297230
519,zmigrod,51.4667,16.9056,15.23,79,92,3.45,PL,1696297391
520,taro,-8.3862,115.28,24.92,55,61,2.21,ID,1696297247
521,olecko,54.0337,22.507,15.61,78,100,4.2,PL,1696297391
522,san borja,-14.8167,-66.85,27.86,64,39,1.28,BO,1696297392
523,teshi old town,5.5836,-0.1072,25.52,87,8,4.5,GH,1696297392
524,aracati,-4.5617,-37.7697,25.88,81,54,5.47,BR,1696297392
525,neryungri,56.6709,124.6491,1.25,92,100,3.01,RU,1696297392
526,sao tome,0.3365,6.7273,25.86,87,99,4.85,ST,1696297392
527,banda aceh,5.5577,95.3222,28.22,72,100,5.45,ID,1696297392
528,pangai,-19.8,-174.35,25.06,57,75,9.77,TO,1696297392
529,hilo,19.7297,-155.09,26.16,75,100,3.09,US,1696297227
530,tadine,-21.55,167.8833,22.28,65,99,8.7,NC,1696297392
531,ketchikan,55.3422,-131.6461,12.26,94,100,6.17,US,1696297271
532,port blair,11.6667,92.75,25.02,94,100,3.09,IN,1696297393
533,mahibadhoo,3.7833,72.9667,27.02,81,100,4.18,MV,1696297393
534,staraya russa,57.9944,31.3608,11.1,86,99,3.71,RU,1696297393
535,akureyri,65.6835,-18.0878,4.96,75,100,4.63,IS,1696297365
536,mulayjah,27.271,48.4242,28.69,23,0,2.24,SA,1696297393
537,east wenatchee bench,47.4257,-120.2812,18.6,56,100,3.6,US,1696297393
538,kirkland lake,48.1446,-80.0377,20.16,73,57,1.03,CA,1696297393
539,ta`u,-14.2336,-169.5144,26.78,81,39,9.58,AS,1696297394
540,raduzhny,62.0961,77.475,8.13,89,98,5.89,RU,1696297394
541,boma,7.0805,-2.1697,22.35,100,99,1.54,GH,1696297394
542,minot air force base,48.4209,-101.3391,17.1,88,100,2.57,US,1696297394
543,freeport,40.6576,-73.5832,20.55,82,0,2.06,US,1696297229
544,nova vicosa,-17.8919,-39.3719,24.39,92,96,5.36,BR,1696297203
545,okahao,-17.885,15.0667,24.85,30,85,2.73,NA,1696297394
546,karema,-6.8205,30.4389,25.81,41,42,5.25,TZ,1696297394
547,ekibastuz,51.6667,75.3667,6.12,60,12,2.93,KZ,1696297395
548,talara,-4.5772,-81.2719,22.42,83,0,7.46,PE,1696297395
549,pandan,14.0453,124.1694,30.85,68,99,6.75,PH,1696297395
550,vila do maio,15.1333,-23.2167,26.44,81,100,3.55,CV,1696297395
551,albertina,-22.2008,-46.6158,19.22,88,42,1.01,BR,1696297395
552,altai,46.3722,96.2583,2.68,60,3,0.72,MN,1696297395
553,tete,-16.1564,33.5867,22.27,68,100,4.65,MZ,1696297395
554,taksimo,56.3444,114.8794,-0.72,70,99,0.89,RU,1696297395
555,ar ruseris,11.8659,34.3869,25.23,82,46,3.18,SD,1696297396
556,bytow,54.1706,17.4919,14.56,81,85,3.33,PL,1696297245
557,baltasi,56.3462,50.2062,10.94,90,100,0.89,RU,1696297396
558,nanao,37.05,136.9667,24.1,46,10,4.4,JP,1696297396
559,selebi-phikwe,-21.979,27.8498,13.04,72,0,4.11,BW,1696297396
560,aroma,15.8167,36.1333,29.42,34,13,3.36,SD,1696297394
561,bykhaw,53.5193,30.2469,7.9,87,47,2.88,BY,1696297396
562,bridgewater,44.3835,-64.5155,15.82,85,44,2.57,CA,1696297396
563,sakaiminato,35.55,133.2333,20.99,68,75,1.54,JP,1696297396
564,onguday,50.75,86.15,5.69,76,9,1.48,RU,1696297397
565,pucallpa,-8.3791,-74.5539,30.02,70,40,1.54,PE,1696297397
566,peruibe,-24.32,-46.9983,18.47,92,100,1.54,BR,1696297346
567,eten,-6.9081,-79.8642,21.14,78,75,7.72,PE,1696297397
568,kinkala,-4.3614,14.7644,23.08,87,73,2.01,CG,1696297397
569,altay,47.8667,88.1167,12.04,44,14,1.85,CN,1696297397
570,monitos,8.25,-76.05,25.07,93,100,1.8,CO,1696297397
571,port shepstone,-30.7414,30.455,15.98,78,0,6.55,ZA,1696297378
572,mucur,39.0615,34.3829,11.01,70,98,4.91,TR,1696297398
573,huarmey,-10.0681,-78.1522,19.93,85,96,4.02,PE,1696297398
574,inarajan village,13.2736,144.7484,31.54,87,98,6.21,GU,1696297398
